[
    {
       "name" : "Good Mong Kok Bakery",
       "address": "1039 Stockton St. San Francisco",
       "city": "San Francisco",
       "phone": "415.397.2688",
       "hours": "Everyday: 7am - 6pm",
       "menuLink": "https://www.goodmongkok.com/menu/",
       "lat" : "37.788970",
       "lng" : "-122.406880",
       "averageRating": "4.4",
       "reviews": [],
       "image": "https://images.firstwefeast.com/complex/images/c_limit,f_auto,fl_lossy,q_auto,w_1100/vio2cftfrc8nxxnsnwhv/pork-buns",
       "slug": "Good_Mong_Kok_Bakery"
    },
    {
      "name" : "Golden Gate Bakery",
      "address" : "1029 Grant Ave. San Francisco",
      "city": "San Francisco",
      "phone" : "415.781.2627",
      "hours" : "Everyday: 8am - 8pm",
      "menuLink" : "http://goldengatebakery.com/",
      "lat" : "37.788970",
      "lng" : "-122.406880",
      "averageRating" : "4.2",
      "reviews": [],
      "image" : "https://images.firstwefeast.com/complex/images/c_limit,f_auto,fl_lossy,q_auto,w_1100/oc5hznbwcldsldxwgr2t/egg-tart",
      "slug": "Golden_Gate_Bakery"
    },
    {
       "name" : "Hang Ah Dim Sum Tea House",
       "address": "1 Pagoda Place, San Francisco",
       "city": "San Francisco",
       "phone": "415.982.5686",
       "hours": "Tuesday 10:30am - 2:30pm, Wednesday-Monday 10:30am - 9pm",
       "menuLink": "http://www.hangah1920.com/menu/",
       "lat" : "37.788970",
       "lng" : "-122.406880",
       "averageRating": "4.1",
       "reviews": [],
       "image": "https://images.firstwefeast.com/complex/images/c_limit,f_auto,fl_lossy,q_auto,w_1100/t9wkdskvqwresoqdeqtf/har-gow",
       "slug": "Hang_Ah_Dim_Sum_Tea_House"
    },
    {
      "name" : "Yank Sing",
      "address" : "49 Stevenson St. San Francisco",
      "city": "San Francisco",
      "phone" : "415.541.4949",
      "hours" : "Monday-Friday: 11am - 3pm, Saturday-Sunday: 10am - 4pm",
      "menuLink" : "https://www.yanksing.com/",
      "lat" : "37.788970",
      "lng" : "-122.406880",
      "averageRating" : "4.3",
      "reviews": [],
      "image" : "https://images.firstwefeast.com/complex/images/c_limit,f_auto,fl_lossy,q_auto,w_1100/uepjybqusif4dvrhovxu/sponge-cake",
      "slug": "Yank_Sing"
    },
    {
      "name" : "Canton Seafood & Dim Sum Restaurant",
      "address" : "655 Folsom St. San Francisco",
      "city": "San Francisco",
      "phone" : "415.495.3064",
      "hours" : "Everyday: 10:30am - 9:30pm",
      "menuLink" : "http://www.cantonsf.com/",
      "lat" : "37.788970",
      "lng" : "-122.406880",
      "averageRating" : "3.7",
      "reviews": [],
      "image" : "https://images.firstwefeast.com/complex/images/c_limit,f_auto,fl_lossy,q_auto,w_1100/mizvbr9w3soazbrhq388/chicken-feet",
      "slug": "Canton_Seafood_&_Dim_Sum_Restaurant"
    },
    {
      "name" : "Dim Sum Corner",
      "address" : "601 Grant Ave. San Francisco",
      "city": "San Francisco",
      "phone" : "415.362.1118",
      "hours" : "Everyday: 1030am - 8:30pm",
      "menuLink" : "http://dimsumcornersf.com/",
      "lat" : "37.788970",
      "lng" : "-122.406880",
      "averageRating" : "4.1",
      "reviews": [],
      "image" : "https://images.firstwefeast.com/complex/images/c_crop,h_443,w_590,x_0,y_146/c_limit,f_auto,fl_lossy,q_auto,w_1100/rx54scuarii8kqaic2vm/radish-puff",
      "slug": "Dim_Sum_Corner"
    },
    {
      "name" : "City View Restaurant",
      "address" : "662 Commercial St. San Francisco",
      "city": "San Francisco",
      "phone" : "415.398.2838",
      "hours" : "Monday - Friday: 11am - 2:30pm, Saturday - Sunday: 10am - 2:30pm",
      "menuLink" : "http://places.singleplatform.com/city-view-restaurant/menu?ref=google",
      "lat" : "37.788970",
      "lng" : "-122.406880",
      "averageRating" : "4.4",
      "reviews": [],
      "image" : "https://images.firstwefeast.com/complex/images/c_limit,f_auto,fl_lossy,q_auto,w_1100/g2ywlsv9oxeosfmmnivi/pork-buns",
      "slug": "City_View_Restaurant"
    },
    {
      "name" : "Yummy Dim Sum & Fast Food",
      "address" : "930 Stockton St. San Francisco",
      "city": "San Francisco",
      "phone" : "415.986.2783",
      "hours" : "Everyday: 6:30am - 7pm",
      "menuLink" : "http://yummy-dim-sum-san-francisco-2.sites.tablehero.com/",
      "lat" : "37.788970",
      "lng" : "-122.406880",
      "averageRating" : "3.8",
      "reviews": [],
      "image" : "https://images.firstwefeast.com/complex/images/c_limit,f_auto,fl_lossy,q_auto,w_1100/gn5mhebgnkgd2ooerte7/stuffed-eggplant",
      "slug": "Yummy_Dim_Sum_&_Fast_Food"
    },
    {
      "name" : "Imperial Palace",
      "address" : "818 Washington St. San Francisco",
      "city": "San Francisco",
      "phone" : "415.956.9888",
      "hours" : "Sunday - Thursday: 8am - 10pm, Friday - Saturday: 8am - 10:30pm",
      "menuLink" : "http://imperialpalacesfca.com/",
      "lat" : "37.788970",
      "lng" : "-122.406880",
      "averageRating" : "3.4",
      "reviews": [],
      "image" : "https://images.firstwefeast.com/complex/images/c_limit,f_auto,fl_lossy,q_auto,w_1100/kfl3fwzpmt6jgwqswzqw/sticky-rice-lotus-leaf",
      "slug": "Imperial_Palace"
    },
    {
      "name" : "Dim Sum Bistro",
      "address" : "4405 675 Broadway, San Francisco",
      "city": "San Francisco",
      "phone" : "415.788.7028",
      "hours" : "Everyday: 6:30am - 4:30pm",
      "menuLink" : "http://mydimsumbistro.com/",
      "lat" : "37.788970",
      "lng" : "-122.406880",
      "averageRating" : "4.3",
      "reviews": [],
      "image" : "https://images.firstwefeast.com/complex/images/c_limit,f_auto,fl_lossy,q_auto,w_1100/zyyxthragpiofsa2xisq/spring-roll",
      "slug": "Dim_Sum_Bistro"
    }
]